Car.PitchAcc,Car.PitchVel,Car.RollAcc,Car.RollVel,Car.YawAcc,Car.YawVel,Car.ax,Car.ay,Car.az,Car.v,Car.vx,Car.vy,Car.vz,Time
rad/s^2,rad/s,rad/s^2,rad/s,rad/s^2,rad/s,m/s^2,m/s^2,m/s^2,m/s,m/s,m/s,m/s,s
-1.79E-05,-3.94E-08,0.012653288,2.75E-05,-2.50E-05,-6.51E-08,0.000121221,-0.001465012,-1.84E-05,4.00E-07,1.45E-07,-3.73E-07,-5.57E-09,0.001
3.25E-06,-4.65E-08,-0.005487357,4.77E-05,3.78E-05,2.69E-07,-3.57E-05,-0.000792185,-4.12E-05,2.58E-06,2.81E-07,-2.51E-06,-5.36E-07,0.011
-2.90E-07,-5.77E-08,-0.011937249,-5.49E-05,3.61E-06,4.52E-07,2.29E-06,0.000241222,-5.25E-05,2.47E-06,2.20E-07,-2.36E-06,-7.07E-07,0.021
1.34E-06,-4.21E-08,-0.006244052,-0.000150779,-8.49E-05,2.03E-08,7.67E-06,0.001211135,-0.000125442,2.55E-06,2.10E-07,1.94E-06,-1.65E-06,0.031
2.10E-06,-2.94E-08,0.007594572,-0.000139767,-0.000120805,-1.10E-06,5.45E-06,0.001483272,-8.70E-05,1.00E-05,3.22E-07,9.62E-06,-2.82E-06,0.041
3.84E-06,4.74E-09,0.016294584,-3.44E-06,-4.96E-05,-2.02E-06,-8.28E-06,0.000193188,3.10E-05,1.56E-05,3.02E-07,1.53E-05,-3.18E-06,0.051
5.50E-06,6.18E-08,0.002928185,9.15E-05,7.02E-05,-1.79E-06,-2.55E-06,-0.001047373,-6.25E-05,1.56E-05,2.11E-07,1.52E-05,-3.49E-06,0.061
2.84E-06,9.79E-08,-0.008019147,5.34E-05,0.00011114,-7.79E-07,8.88E-06,-0.000793468,2.10E-06,1.17E-05,2.67E-07,1.11E-05,-3.87E-06,0.071
8.91E-06,1.67E-07,-0.008453079,-3.70E-05,5.49E-05,6.77E-08,-7.00E-06,-4.35E-05,-1.03E-05,8.19E-06,2.78E-07,7.30E-06,-3.71E-06,0.081
4.36E-06,2.32E-07,-0.000634864,-8.47E-05,-2.09E-05,1.88E-07,6.32E-06,0.0006654,-2.60E-05,7.98E-06,2.53E-07,6.93E-06,-3.95E-06,0.091
3.04E-06,2.64E-07,0.009575147,-3.16E-05,-3.70E-05,-1.83E-07,1.76E-06,0.000433907,4.34E-05,9.23E-06,3.20E-07,8.33E-06,-3.95E-06,0.101
7.71E-06,3.34E-07,0.008139019,7.14E-05,2.56E-05,-2.54E-07,-6.42E-06,-0.000742827,-1.58E-05,8.35E-06,2.77E-07,7.50E-06,-3.65E-06,0.111
3.71E-06,3.89E-07,-0.002452918,9.39E-05,7.70E-05,3.29E-07,8.07E-06,-0.000992374,-7.00E-06,5.21E-06,2.83E-07,3.50E-06,-3.85E-06,0.121
4.04E-06,4.24E-07,-0.007599654,3.39E-05,5.98E-05,1.07E-06,-3.09E-06,-0.000446123,5.66E-05,3.90E-06,3.29E-07,-1.37E-06,-3.64E-06,0.131
5.23E-06,4.77E-07,-0.0049586,-3.24E-05,-3.27E-06,1.33E-06,-7.13E-06,0.000220546,3.51E-05,5.01E-06,2.59E-07,-3.96E-06,-3.05E-06,0.141
1.52E-06,5.09E-07,0.002866734,-4.11E-05,-5.18E-05,9.90E-07,4.73E-06,0.000543408,4.22E-05,4.47E-06,2.44E-07,-3.53E-06,-2.73E-06,0.151
4.15E-06,5.32E-07,0.008182434,2.30E-05,-3.65E-05,5.02E-07,-2.78E-06,3.30E-05,4.50E-05,3.42E-06,2.72E-07,-2.67E-06,-2.12E-06,0.161
1.08E-06,5.61E-07,0.002511296,8.10E-05,1.92E-05,4.49E-07,1.91E-06,-0.000654672,4.09E-06,4.38E-06,2.43E-07,-3.93E-06,-1.93E-06,0.171
-1.60E-06,5.53E-07,-0.004568111,6.41E-05,4.14E-05,8.04E-07,2.57E-06,-0.000547607,3.69E-05,7.11E-06,2.85E-07,-6.88E-06,-1.77E-06,0.181
-1.12E-06,5.39E-07,-0.005706247,6.58E-06,1.04E-05,1.08E-06,-7.14E-06,-3.15E-05,7.97E-05,9.35E-06,2.60E-07,-9.27E-06,-1.19E-06,0.191
-2.36E-06,5.25E-07,-0.001806328,-3.32E-05,-3.60E-05,9.28E-07,-2.61E-06,0.000439096,4.23E-05,9.28E-06,1.95E-07,-9.26E-06,-5.90E-07,0.201
-5.30E-06,4.84E-07,0.004264358,-1.63E-05,-5.14E-05,4.40E-07,2.80E-06,0.000416371,6.50E-05,7.49E-06,2.05E-07,-7.49E-06,-1.00E-07,0.211
-3.51E-06,4.50E-07,0.005077163,3.89E-05,-1.86E-05,7.06E-08,-3.16E-06,-0.000201355,2.65E-05,6.39E-06,2.00E-07,-6.37E-06,4.46E-07,0.221
-6.91E-06,3.96E-07,-0.00070089,5.90E-05,1.94E-05,1.15E-07,3.38E-06,-0.000437774,2.06E-05,7.03E-06,1.96E-07,-6.99E-06,6.42E-07,0.231
-7.68E-06,3.20E-07,-0.004664254,2.61E-05,2.11E-05,3.58E-07,-2.25E-06,-0.000170677,5.21E-05,8.39E-06,2.13E-07,-8.33E-06,9.83E-07,0.241
-6.76E-06,2.49E-07,-0.004143859,-1.95E-05,-8.90E-06,4.12E-07,-5.64E-06,0.000144293,3.85E-05,8.67E-06,1.65E-07,-8.53E-06,1.54E-06,0.251
-8.20E-06,1.73E-07,-0.003505332,-5.75E-05,-4.31E-05,1.35E-07,2.40E-06,0.000423605,5.15E-06,6.56E-06,1.42E-07,-6.31E-06,1.77E-06,0.261
-7.93E-06,9.08E-08,-0.002876458,-8.92E-05,-6.69E-05,-4.36E-07,2.83E-06,0.000659002,-1.98E-05,2.26E-06,1.77E-07,-1.47E-06,1.70E-06,0.271
-6.36E-06,1.99E-08,-0.002316354,-0.000115003,-7.88E-05,-1.18E-06,6.49E-07,0.000817475,-4.29E-05,5.61E-06,1.93E-07,5.43E-06,1.40E-06,0.281
-4.37E-06,-3.33E-08,-0.00184719,-0.000135707,-7.85E-05,-1.98E-06,9.18E-07,0.000900715,-6.30E-05,1.36E-05,2.02E-07,1.36E-05,8.69E-07,0.291
-1.96E-06,-6.39E-08,-0.001464909,-0.000152231,-6.93E-05,-2.72E-06,1.07E-06,0.000923346,-7.91E-05,2.24E-05,2.13E-07,2.24E-05,1.58E-07,0.301
4.86E-07,-6.99E-08,-0.001154123,-0.000165361,-5.49E-05,-3.33E-06,1.33E-06,0.000902428,-9.03E-05,3.12E-05,2.26E-07,3.12E-05,-6.93E-07,0.311
2.75E-06,-5.24E-08,-0.000897979,-0.000175716,-3.83E-05,-3.79E-06,1.70E-06,0.000852453,-9.66E-05,3.97E-05,2.42E-07,3.96E-05,-1.63E-06,0.321
4.78E-06,-1.36E-08,-0.0006826,-0.000183762,-2.20E-05,-4.08E-06,1.94E-06,0.000784595,-9.84E-05,4.76E-05,2.61E-07,4.75E-05,-2.62E-06,0.331
6.55E-06,4.42E-08,-0.000498102,-0.000189847,-7.47E-06,-4.22E-06,2.08E-06,0.000706956,-9.61E-05,5.48E-05,2.82E-07,5.47E-05,-3.60E-06,0.341
8.06E-06,1.18E-07,-0.000338079,-0.00019424,4.67E-06,-4.22E-06,2.11E-06,0.000625169,-9.05E-05,6.12E-05,3.04E-07,6.10E-05,-4.54E-06,0.351
9.34E-06,2.06E-07,-0.000198639,-0.000197162,1.42E-05,-4.12E-06,2.06E-06,0.000543062,-8.21E-05,6.68E-05,3.25E-07,6.66E-05,-5.41E-06,0.361
1.04E-05,3.05E-07,-7.75E-05,-0.000198804,2.13E-05,-3.94E-06,1.94E-06,0.000463178,-7.15E-05,7.15E-05,3.46E-07,7.12E-05,-6.19E-06,0.371
1.11E-05,4.13E-07,4.24E-05,-0.000199264,2.62E-05,-3.69E-06,1.76E-06,0.000386004,-5.90E-05,7.55E-05,3.65E-07,7.52E-05,-6.85E-06,0.381
1.15E-05,5.27E-07,0.000150037,-0.000198572,2.94E-05,-3.41E-06,1.52E-06,0.000313308,-4.52E-05,7.86E-05,3.82E-07,7.83E-05,-7.38E-06,0.391
1.17E-05,6.43E-07,0.000237962,-0.000196923,3.13E-05,-3.11E-06,1.24E-06,0.000245201,-3.05E-05,8.11E-05,3.96E-07,8.07E-05,-7.76E-06,0.401
1.15E-05,7.59E-07,0.000306806,-0.000194508,3.21E-05,-2.79E-06,9.40E-07,0.000182349,-1.53E-05,8.29E-05,4.07E-07,8.25E-05,-8.00E-06,0.411
1.09E-05,8.71E-07,0.00035766,-0.000191514,3.20E-05,-2.46E-06,6.25E-07,0.000125478,-1.04E-07,8.41E-05,4.14E-07,8.37E-05,-8.08E-06,0.421
1.00E-05,9.75E-07,0.000391826,-0.000188112,3.11E-05,-2.15E-06,2.43E-07,7.48E-05,1.47E-05,8.47E-05,4.19E-07,8.43E-05,-8.01E-06,0.431
8.80E-06,1.07E-06,0.000410863,-0.000184461,2.96E-05,-1.84E-06,-1.08E-07,3.10E-05,2.88E-05,8.48E-05,4.19E-07,8.45E-05,-7.80E-06,0.441
7.27E-06,1.15E-06,0.000416566,-0.0001807,2.77E-05,-1.56E-06,-3.34E-07,-5.86E-06,4.19E-05,8.46E-05,4.18E-07,8.42E-05,-7.45E-06,0.451
5.51E-06,1.21E-06,0.000410548,-0.000176955,2.54E-05,-1.29E-06,-6.72E-07,-3.60E-05,5.36E-05,8.39E-05,4.11E-07,8.36E-05,-6.97E-06,0.461
3.53E-06,1.26E-06,0.000394536,-0.000173333,2.28E-05,-1.05E-06,-9.62E-07,-5.96E-05,6.38E-05,8.30E-05,4.02E-07,8.28E-05,-6.38E-06,0.471
1.39E-06,1.28E-06,0.000370269,-0.000169924,2.00E-05,-8.36E-07,-1.22E-06,-7.69E-05,7.23E-05,8.19E-05,3.91E-07,8.17E-05,-5.70E-06,0.481
-8.44E-07,1.28E-06,0.000339441,-0.000166801,1.71E-05,-6.50E-07,-1.47E-06,-8.83E-05,7.89E-05,8.06E-05,3.76E-07,8.05E-05,-4.94E-06,0.491
-3.12E-06,1.26E-06,0.000317556,-0.000163944,1.43E-05,-4.93E-07,-1.66E-06,-9.58E-05,8.38E-05,7.93E-05,3.59E-07,7.92E-05,-4.12E-06,0.501
-5.39E-06,1.22E-06,0.000293173,-0.000161306,1.16E-05,-3.64E-07,-1.84E-06,-9.85E-05,8.69E-05,7.79E-05,3.41E-07,7.78E-05,-3.26E-06,0.511
-7.58E-06,1.15E-06,0.0002633,-0.000158949,9.09E-06,-2.61E-07,-1.98E-06,-9.79E-05,8.83E-05,7.65E-05,3.21E-07,7.64E-05,-2.38E-06,0.521
-9.65E-06,1.06E-06,0.000229391,-0.000156918,6.81E-06,-1.82E-07,-2.07E-06,-9.43E-05,8.79E-05,7.51E-05,2.99E-07,7.50E-05,-1.49E-06,0.531
-1.15E-05,9.57E-07,0.000193007,-0.000155246,4.73E-06,-1.24E-07,-2.12E-06,-8.80E-05,8.59E-05,7.37E-05,2.78E-07,7.37E-05,-6.17E-07,0.541
-1.32E-05,8.32E-07,0.000155669,-0.000153949,2.84E-06,-8.59E-08,-2.13E-06,-7.94E-05,8.24E-05,7.25E-05,2.55E-07,7.25E-05,2.32E-07,0.551
-1.46E-05,6.92E-07,0.000118755,-0.000153029,1.13E-06,-6.58E-08,-2.11E-06,-6.89E-05,7.76E-05,7.13E-05,2.33E-07,7.13E-05,1.04E-06,0.561
-1.57E-05,5.39E-07,8.34E-05,-0.000152474,-4.06E-07,-6.18E-08,-2.04E-06,-5.67E-05,7.15E-05,7.03E-05,2.12E-07,7.03E-05,1.79E-06,0.571
-1.65E-05,3.77E-07,5.07E-05,-0.000152263,-1.75E-06,-7.22E-08,-1.95E-06,-4.34E-05,6.44E-05,6.94E-05,1.92E-07,6.93E-05,2.48E-06,0.581
-1.70E-05,2.10E-07,2.14E-05,-0.000152365,-2.90E-06,-9.49E-08,-1.83E-06,-2.93E-05,5.64E-05,6.86E-05,1.73E-07,6.86E-05,3.09E-06,0.591
-1.71E-05,3.92E-08,2.12E-05,-0.000152692,-3.98E-06,-1.28E-07,-1.53E-06,-1.17E-05,4.79E-05,6.80E-05,1.55E-07,6.79E-05,3.61E-06,0.601
-1.68E-05,-1.30E-07,7.45E-05,-0.000152633,-4.35E-06,-1.68E-07,-1.57E-06,-1.63E-06,3.95E-05,6.75E-05,1.39E-07,6.74E-05,4.05E-06,0.611
-1.63E-05,-2.96E-07,0.000119292,-0.00015209,-4.22E-06,-2.11E-07,-1.37E-06,4.26E-06,3.13E-05,6.70E-05,1.25E-07,6.69E-05,4.41E-06,0.621
-1.54E-05,-4.54E-07,0.000154765,-0.000151155,-3.51E-06,-2.48E-07,-1.22E-06,5.91E-06,2.34E-05,6.66E-05,1.12E-07,6.65E-05,4.69E-06,0.631
-1.43E-05,-6.02E-07,0.000189601,-0.00014987,-2.38E-06,-2.76E-07,-1.05E-06,2.77E-06,1.60E-05,6.62E-05,1.01E-07,6.61E-05,4.89E-06,0.641
-1.30E-05,-7.38E-07,0.000218038,-0.000148262,-1.07E-06,-2.91E-07,-4.17E-07,-2.05E-06,9.03E-06,6.58E-05,9.15E-08,6.56E-05,5.01E-06,0.651
-1.14E-05,-8.59E-07,0.000238058,-0.00014642,2.28E-07,-2.93E-07,-8.40E-07,-8.63E-06,2.79E-06,6.53E-05,8.73E-08,6.51E-05,5.07E-06,0.661
-9.77E-06,-9.64E-07,0.000250994,-0.000144422,1.44E-06,-2.83E-07,-5.06E-07,-1.60E-05,-2.99E-06,6.47E-05,8.07E-08,6.45E-05,5.07E-06,0.671
-8.01E-06,-1.05E-06,0.000258277,-0.00014233,2.36E-06,-2.62E-07,-2.47E-07,-2.32E-05,-8.18E-06,6.41E-05,7.80E-08,6.39E-05,5.01E-06,0.681
-6.16E-06,-1.12E-06,0.000261107,-0.000140194,3.06E-06,-2.33E-07,-1.37E-07,-2.98E-05,-1.28E-05,6.34E-05,7.69E-08,6.32E-05,4.90E-06,0.691
-4.28E-06,-1.17E-06,0.000260501,-0.000138052,3.46E-06,-1.99E-07,3.45E-08,-3.54E-05,-1.70E-05,6.26E-05,7.72E-08,6.24E-05,4.75E-06,0.701
-2.40E-06,-1.21E-06,0.000257302,-0.000135934,3.60E-06,-1.62E-07,1.86E-07,-3.98E-05,-2.06E-05,6.17E-05,7.92E-08,6.16E-05,4.56E-06,0.711
-5.54E-07,-1.22E-06,0.000252221,-0.000133863,3.54E-06,-1.25E-07,3.19E-07,-4.29E-05,-2.36E-05,6.08E-05,8.26E-08,6.07E-05,4.34E-06,0.721
1.22E-06,-1.22E-06,0.00024586,-0.000131853,3.32E-06,-8.88E-08,4.44E-07,-4.49E-05,-2.62E-05,5.99E-05,8.73E-08,5.98E-05,4.09E-06,0.731
2.91E-06,-1.19E-06,0.000238742,-0.000129914,2.98E-06,-5.60E-08,5.55E-07,-4.57E-05,-2.83E-05,5.90E-05,9.31E-08,5.88E-05,3.81E-06,0.741
4.46E-06,-1.16E-06,0.00023132,-0.000128051,2.58E-06,-2.70E-08,6.52E-07,-4.56E-05,-3.00E-05,5.80E-05,9.99E-08,5.79E-05,3.52E-06,0.751
5.86E-06,-1.10E-06,0.000223992,-0.000126265,2.14E-06,-2.17E-09,7.35E-07,-4.46E-05,-3.11E-05,5.71E-05,1.08E-07,5.70E-05,3.21E-06,0.761
7.09E-06,-1.04E-06,0.000148873,-0.000124622,1.89E-06,1.84E-08,8.03E-07,-7.55E-05,-3.18E-05,5.61E-05,1.16E-07,5.61E-05,2.89E-06,0.771
8.25E-06,-9.61E-07,-0.000558931,-0.000127594,1.53E-07,3.39E-08,8.90E-07,-4.51E-05,-3.65E-05,5.54E-05,1.25E-07,5.53E-05,2.56E-06,0.781
9.27E-06,-8.73E-07,-0.001166394,-0.00013711,-5.35E-06,1.02E-08,1.58E-06,1.91E-05,-4.54E-05,5.49E-05,1.37E-07,5.49E-05,2.15E-06,0.791
1.03E-05,-7.75E-07,-0.001642,-0.000151998,-1.50E-05,-9.27E-08,2.03E-06,0.000117233,-5.71E-05,5.53E-05,1.56E-07,5.53E-05,1.65E-06,0.801
1.14E-05,-6.66E-07,-0.002000966,-0.000170966,-2.66E-05,-3.04E-07,2.25E-06,0.000240424,-7.10E-05,5.67E-05,1.77E-07,5.66E-05,1.01E-06,0.811
1.28E-05,-5.44E-07,-0.002260609,-0.00019297,-3.83E-05,-6.34E-07,2.57E-06,0.000376265,-8.65E-05,5.93E-05,2.02E-07,5.93E-05,2.30E-07,0.821
1.43E-05,-4.09E-07,-0.002433384,-0.000217085,-4.87E-05,-1.07E-06,2.88E-06,0.000513589,-0.000102634,6.33E-05,2.30E-07,6.32E-05,-7.11E-07,0.831
1.59E-05,-2.57E-07,-0.00253191,-0.000242512,-5.65E-05,-1.60E-06,3.21E-06,0.000643605,-0.000118288,6.86E-05,2.61E-07,6.85E-05,-1.81E-06,0.841
1.77E-05,-8.78E-08,-0.002567659,-0.000268572,-6.13E-05,-2.20E-06,3.55E-06,0.00076014,-0.000132548,7.51E-05,2.96E-07,7.50E-05,-3.06E-06,0.851
1.94E-05,9.84E-08,-0.002550706,-0.000294695,-6.31E-05,-2.82E-06,3.88E-06,0.00085926,-0.000144632,8.27E-05,3.33E-07,8.26E-05,-4.45E-06,0.861
2.10E-05,3.01E-07,-0.002469397,-0.000320288,-6.20E-05,-3.45E-06,4.18E-06,0.000937919,-0.000153818,9.12E-05,3.75E-07,9.10E-05,-5.94E-06,0.871
2.26E-05,5.20E-07,-0.002352735,-0.000344855,-5.83E-05,-4.05E-06,4.42E-06,0.000995209,-0.000159601,0.000100435,4.18E-07,0.000100153,-7.51E-06,0.881
2.39E-05,7.53E-07,-0.002211383,-0.000368117,-5.26E-05,-4.60E-06,4.61E-06,0.00103118,-0.000161755,0.000110122,4.64E-07,0.000109742,-9.12E-06,0.891
2.49E-05,9.98E-07,-0.002052094,-0.000389863,-4.54E-05,-5.09E-06,4.73E-06,0.001047041,-0.000160157,0.000120074,5.11E-07,0.000119592,-1.07E-05,0.901
2.57E-05,1.25E-06,-0.001880876,-0.000409948,-3.73E-05,-5.49E-06,4.78E-06,0.00104468,-0.000154824,0.000130096,5.59E-07,0.00012951,-1.23E-05,0.911
2.61E-05,1.51E-06,-0.001703163,-0.000428284,-2.87E-05,-5.82E-06,4.76E-06,0.001026338,-0.000145908,0.000140012,6.07E-07,0.000139326,-1.38E-05,0.921
2.61E-05,1.77E-06,-0.001523923,-0.000444832,-2.01E-05,-6.06E-06,4.65E-06,0.000994428,-0.000133667,0.000149672,6.54E-07,0.000148893,-1.52E-05,0.931
2.58E-05,2.03E-06,-0.001330396,-0.000459512,-1.19E-05,-6.21E-06,4.47E-06,0.00095069,-0.000118364,0.000158946,7.00E-07,0.000158085,-1.65E-05,0.941
2.50E-05,2.29E-06,-0.001143009,-0.000472271,-4.08E-06,-6.28E-06,4.20E-06,0.000897385,-0.000100346,0.000167725,7.43E-07,0.000166796,-1.76E-05,0.951
2.38E-05,2.53E-06,-0.000969629,-0.000483233,3.08E-06,-6.28E-06,3.86E-06,0.000836733,-8.01E-05,0.000175922,7.83E-07,0.000174943,-1.85E-05,0.961
2.21E-05,2.76E-06,-0.000813257,-0.000492554,9.43E-06,-6.22E-06,3.46E-06,0.000771198,-5.83E-05,0.000183475,8.19E-07,0.000182464,-1.92E-05,0.971
2.00E-05,2.97E-06,-0.000676045,-0.000500417,1.48E-05,-6.09E-06,3.01E-06,0.000703232,-3.54E-05,0.000190345,8.51E-07,0.000189322,-1.97E-05,0.981
1.75E-05,3.15E-06,-0.000559444,-0.000507022,1.92E-05,-5.92E-06,2.51E-06,0.0006351,-1.19E-05,0.00019652,8.78E-07,0.000195504,-1.99E-05,0.991
1.47E-05,3.31E-06,-0.000464314,-0.00051258,2.24E-05,-5.70E-06,1.99E-06,0.000568805,1.15E-05,0.000202006,8.99E-07,0.000201018,-1.99E-05,1.001
1.15E-05,3.44E-06,-0.000382998,-0.000517283,2.46E-05,-5.47E-06,1.43E-06,0.00050577,3.44E-05,0.000206834,9.15E-07,0.00020589,-1.97E-05,1.011
8.01E-06,3.54E-06,-0.00031372,-0.00052121,2.58E-05,-5.21E-06,8.64E-07,0.000446863,5.62E-05,0.00021104,9.25E-07,0.000210158,-1.93E-05,1.021
4.33E-06,3.60E-06,-0.000268573,-0.000524578,2.62E-05,-4.95E-06,2.88E-07,0.000393104,7.66E-05,0.000214676,9.29E-07,0.000213867,-1.86E-05,1.031
5.07E-07,3.62E-06,-0.000246779,-0.000527626,2.58E-05,-4.69E-06,-2.68E-07,0.000345411,9.50E-05,0.000217799,9.28E-07,0.000217074,-1.77E-05,1.041
-3.39E-06,3.61E-06,-0.000246909,-0.000530578,2.47E-05,-4.43E-06,-7.97E-07,0.000304653,0.000111215,0.000220478,9.21E-07,0.000219843,-1.67E-05,1.051
-7.30E-06,3.55E-06,-0.000267069,-0.000533645,2.29E-05,-4.19E-06,-1.29E-06,0.00027151,0.000124807,0.000222788,9.08E-07,0.000222246,-1.55E-05,1.061
-1.11E-05,3.46E-06,-0.000305067,-0.000537014,2.05E-05,-3.98E-06,-1.75E-06,0.000246401,0.000135575,0.000224811,8.91E-07,0.00022436,-1.42E-05,1.071
-1.48E-05,3.32E-06,-0.000358521,-0.00054085,1.76E-05,-3.78E-06,-2.12E-06,0.000229533,0.000143342,0.00022663,8.70E-07,0.000226266,-1.28E-05,1.081
-1.82E-05,3.16E-06,-0.000417549,-0.000545272,1.43E-05,-3.63E-06,-2.47E-06,0.00022032,0.000148076,0.000228328,8.46E-07,0.000228045,-1.13E-05,1.091
-2.13E-05,2.96E-06,-0.000478911,-0.00055027,1.08E-05,-3.50E-06,-2.74E-06,0.000218131,0.000149844,0.00022998,8.18E-07,0.000229768,-9.83E-06,1.101
-2.41E-05,2.73E-06,-0.000551158,-0.000555944,7.24E-06,-3.41E-06,-2.97E-06,0.000222404,0.000148663,0.000231655,7.88E-07,0.000231504,-8.33E-06,1.111
-2.64E-05,2.48E-06,-0.000632031,-0.000562389,3.76E-06,-3.36E-06,-3.10E-06,0.000232635,0.000144624,0.000233417,7.57E-07,0.000233315,-6.85E-06,1.121
-2.82E-05,2.20E-06,-0.000719356,-0.00056968,2.31E-07,-3.34E-06,-3.14E-06,0.000248163,0.000137921,0.00023532,7.25E-07,0.000235257,-5.43E-06,1.131
-2.95E-05,1.91E-06,-0.000810588,-0.000577867,-3.18E-06,-3.35E-06,-3.15E-06,0.000268594,0.000128748,0.000237415,6.93E-07,0.000237379,-4.08E-06,1.141
-3.02E-05,1.61E-06,-0.000903383,-0.000586975,-6.43E-06,-3.40E-06,-3.07E-06,0.000293375,0.00011735,0.000239745,6.61E-07,0.000239727,-2.84E-06,1.151
-3.04E-05,1.31E-06,-0.000995658,-0.000597009,-9.48E-06,-3.48E-06,-2.93E-06,0.000321818,0.000104015,0.000242349,6.31E-07,0.000242342,-1.72E-06,1.161
-3.00E-05,1.01E-06,-0.00108557,-0.000607953,-1.23E-05,-3.59E-06,-2.72E-06,0.00035317,8.91E-05,0.000245258,6.03E-07,0.000245256,-7.50E-07,1.171
-2.91E-05,7.10E-07,-0.001163736,-0.000619745,-1.48E-05,-3.72E-06,-2.46E-06,0.000386364,7.29E-05,0.000248494,5.77E-07,0.000248494,6.88E-08,1.181
-2.76E-05,4.27E-07,-0.001230396,-0.00063223,-1.70E-05,-3.88E-06,-2.16E-06,0.000420241,5.58E-05,0.00025207,5.54E-07,0.000252068,7.20E-07,1.191
-2.56E-05,1.62E-07,-0.001293094,-0.000645358,-1.87E-05,-4.06E-06,-1.81E-06,0.00045395,3.83E-05,0.000255986,5.35E-07,0.000255982,1.20E-06,1.201
-2.31E-05,-8.08E-08,-0.001351063,-0.000659084,-2.00E-05,-4.25E-06,-1.42E-06,0.000486856,2.07E-05,0.000260237,5.20E-07,0.000260232,1.50E-06,1.211
-2.02E-05,-2.96E-07,-0.001403517,-0.000673357,-2.09E-05,-4.46E-06,-1.00E-06,0.000518531,3.24E-06,0.000264813,5.09E-07,0.000264808,1.62E-06,1.221
-1.70E-05,-4.81E-07,-0.001449748,-0.000688117,-2.15E-05,-4.67E-06,-5.61E-07,0.000548642,-1.37E-05,0.000269699,5.03E-07,0.000269694,1.57E-06,1.231
-1.35E-05,-6.32E-07,-0.001489206,-0.000703298,-2.17E-05,-4.88E-06,-1.05E-07,0.000576889,-2.99E-05,0.000274879,5.01E-07,0.000274875,1.36E-06,1.241
-9.76E-06,-7.47E-07,-0.001521527,-0.00071883,-2.17E-05,-5.10E-06,3.59E-07,0.000602988,-4.50E-05,0.000280333,5.04E-07,0.000280331,9.81E-07,1.251
-5.89E-06,-8.23E-07,-0.001546534,-0.00073464,-2.15E-05,-5.32E-06,8.23E-07,0.000626682,-5.89E-05,0.00028604,5.11E-07,0.000286039,4.61E-07,1.261
-1.97E-06,-8.60E-07,-0.001564214,-0.000750654,-2.10E-05,-5.53E-06,1.28E-06,0.000647743,-7.13E-05,0.000291976,5.24E-07,0.000291976,-1.92E-07,1.271
1.94E-06,-8.59E-07,-0.001574693,-0.000766798,-2.03E-05,-5.73E-06,1.72E-06,0.000665986,-8.21E-05,0.000298115,5.40E-07,0.000298113,-9.61E-07,1.281
5.76E-06,-8.18E-07,-0.001570804,-0.000782971,-1.94E-05,-5.93E-06,2.15E-06,0.000680992,-9.11E-05,0.000304428,5.61E-07,0.000304422,-1.83E-06,1.291
9.41E-06,-7.40E-07,-0.001556531,-0.000799022,-1.83E-05,-6.11E-06,2.54E-06,0.00069241,-9.81E-05,0.000310884,5.87E-07,0.000310871,-2.78E-06,1.301
1.28E-05,-6.27E-07,-0.001538133,-0.000814898,-1.70E-05,-6.29E-06,2.90E-06,0.000700121,-0.000103212,0.000317447,6.15E-07,0.000317424,-3.79E-06,1.311
1.60E-05,-4.81E-07,-0.001516074,-0.000830561,-1.55E-05,-6.45E-06,3.23E-06,0.000704225,-0.000106305,0.000324082,6.47E-07,0.000324045,-4.84E-06,1.321
1.87E-05,-3.06E-07,-0.001490643,-0.000845975,-1.39E-05,-6.60E-06,3.52E-06,0.00070497,-0.000107442,0.000330753,6.82E-07,0.000330699,-5.92E-06,1.331
2.11E-05,-1.05E-07,-0.001462033,-0.000861106,-1.22E-05,-6.72E-06,3.76E-06,0.000702655,-0.000106682,0.000337429,7.20E-07,0.000337356,-6.99E-06,1.341
2.31E-05,1.17E-07,-0.001430397,-0.000875924,-1.06E-05,-6.84E-06,3.96E-06,0.000697565,-0.000104118,0.000344081,7.60E-07,0.000343986,-8.05E-06,1.351
2.45E-05,3.56E-07,-0.001395879,-0.000890396,-8.92E-06,-6.93E-06,4.11E-06,0.000689956,-9.99E-05,0.000350683,8.01E-07,0.000350565,-9.07E-06,1.361
2.55E-05,6.07E-07,-0.001358611,-0.000904496,-7.34E-06,-7.01E-06,4.22E-06,0.000680051,-9.41E-05,0.00035721,8.43E-07,0.000357068,-1.00E-05,1.371
2.60E-05,8.66E-07,-0.001318707,-0.000918193,-5.82E-06,-7.07E-06,4.27E-06,0.000668044,-8.69E-05,0.00036364,8.85E-07,0.000363474,-1.10E-05,1.381
2.61E-05,1.13E-06,-0.001276249,-0.000931463,-4.36E-06,-7.12E-06,4.27E-06,0.000654097,-7.84E-05,0.000369954,9.28E-07,0.000369765,-1.18E-05,1.391
2.56E-05,1.39E-06,-0.001231274,-0.000944278,-2.97E-06,-7.16E-06,4.22E-06,0.000638348,-6.89E-05,0.000376132,9.70E-07,0.000375923,-1.25E-05,1.401
2.47E-05,1.64E-06,-0.00118377,-0.000956612,-1.63E-06,-7.18E-06,4.13E-06,0.000620912,-5.85E-05,0.000382158,1.01E-06,0.00038193,-1.32E-05,1.411
2.34E-05,1.88E-06,-0.001133669,-0.000968439,-3.49E-07,-7.19E-06,3.99E-06,0.000601876,-4.74E-05,0.000388016,1.05E-06,0.000387773,-1.37E-05,1.421
2.17E-05,2.10E-06,-0.001080847,-0.00097973,8.94E-07,-7.18E-06,3.81E-06,0.000581306,-3.58E-05,0.00039369,1.09E-06,0.000393436,-1.41E-05,1.431
1.96E-05,2.31E-06,-0.001025127,-0.000990456,2.10E-06,-7.17E-06,3.59E-06,0.000559243,-2.38E-05,0.000399167,1.13E-06,0.000398905,-1.44E-05,1.441
1.72E-05,2.49E-06,-0.000966279,-0.001000586,3.30E-06,-7.14E-06,3.33E-06,0.000535701,-1.17E-05,0.000404432,1.16E-06,0.000404167,-1.46E-05,1.451
1.45E-05,2.65E-06,-0.000904026,-0.001010085,4.48E-06,-7.10E-06,3.03E-06,0.000510672,5.32E-07,0.000409471,1.19E-06,0.000409208,-1.46E-05,1.461
1.17E-05,2.78E-06,-0.000838051,-0.001018917,5.67E-06,-7.05E-06,2.71E-06,0.000484124,1.26E-05,0.000414272,1.22E-06,0.000414015,-1.46E-05,1.471
8.64E-06,2.88E-06,-0.000765666,-0.001027034,6.87E-06,-6.98E-06,2.36E-06,0.000455925,2.45E-05,0.000418821,1.24E-06,0.000418572,-1.44E-05,1.481
5.51E-06,2.95E-06,-0.000658589,-0.001034221,8.17E-06,-6.91E-06,1.98E-06,0.000424765,3.61E-05,0.000423097,1.26E-06,0.000422862,-1.41E-05,1.491
2.31E-06,2.98E-06,-0.000500175,-0.00104,9.83E-06,-6.82E-06,1.59E-06,0.000388312,4.79E-05,0.000427068,1.28E-06,0.000426849,-1.36E-05,1.501
-9.22E-07,2.99E-06,-0.00029175,-0.001043854,1.21E-05,-6.71E-06,1.10E-06,0.000343512,5.99E-05,0.000430673,1.29E-06,0.000430472,-1.31E-05,1.511
-4.15E-06,2.96E-06,-3.84E-05,-0.001045307,1.55E-05,-6.57E-06,5.76E-07,0.000287795,7.25E-05,0.000433824,1.30E-06,0.000433644,-1.24E-05,1.521
-7.35E-06,2.90E-06,0.000254036,-0.001043938,2.00E-05,-6.39E-06,1.75E-10,0.000219052,8.57E-05,0.000436408,1.30E-06,0.000436251,-1.16E-05,1.531
-1.05E-05,2.81E-06,0.000579933,-0.001039385,2.57E-05,-6.16E-06,-6.16E-07,0.000136031,9.98E-05,0.000438295,1.30E-06,0.000438163,-1.07E-05,1.541
-1.37E-05,2.69E-06,0.000934185,-0.001031337,3.25E-05,-5.87E-06,-1.28E-06,3.83E-05,0.000114862,0.000439347,1.28E-06,0.00043924,-9.61E-06,1.551
-1.68E-05,2.54E-06,0.001312187,-0.001019535,4.02E-05,-5.50E-06,-2.00E-06,-7.43E-05,0.000130871,0.000439421,1.27E-06,0.000439339,-8.38E-06,1.561
-1.99E-05,2.35E-06,0.001709927,-0.001003759,4.84E-05,-5.06E-06,-2.76E-06,-0.000200895,0.000147801,0.000438378,1.24E-06,0.000438321,-6.98E-06,1.571
-2.30E-05,2.13E-06,0.002123582,-0.000983829,5.71E-05,-4.53E-06,-3.57E-06,-0.000341021,0.000165579,0.000436086,1.21E-06,0.00043605,-5.42E-06,1.581
-2.61E-05,1.89E-06,0.00255,-0.000959601,6.59E-05,-3.91E-06,-4.36E-06,-0.000493142,0.000184086,0.000432422,1.17E-06,0.000432404,-3.67E-06,1.591
-2.91E-05,1.61E-06,0.002986219,-0.000930961,7.45E-05,-3.21E-06,-5.24E-06,-0.00065621,0.000203119,0.000427277,1.12E-06,0.000427272,-1.73E-06,1.601
-3.21E-05,1.30E-06,0.003429353,-0.000897822,8.28E-05,-2.42E-06,-6.15E-06,-0.00082894,0.00022248,0.000420554,1.06E-06,0.000420553,3.99E-07,1.611
-3.51E-05,9.63E-07,0.003876848,-0.000860127,9.08E-05,-1.55E-06,-7.04E-06,-0.001010024,0.000241949,0.000412172,9.94E-07,0.000412162,2.72E-06,1.621
-3.81E-05,5.96E-07,0.004326387,-0.000817842,9.82E-05,-6.03E-07,-7.93E-06,-0.001198158,0.000261286,0.00040206,9.18E-07,0.000402025,5.24E-06,1.631
-4.11E-05,1.98E-07,0.004775863,-0.000770953,0.000104997,4.14E-07,-8.81E-06,-0.001392079,0.000280243,0.000390164,8.33E-07,0.000390082,7.95E-06,1.641
-4.40E-05,-2.28E-07,0.005223359,-0.000719471,0.000111132,1.49E-06,-9.66E-06,-0.001590581,0.000298571,0.000376441,7.40E-07,0.000376284,1.08E-05,1.651
-4.68E-05,-6.84E-07,0.005700334,-0.000663248,0.000116582,2.63E-06,-1.05E-05,-0.001793872,0.000316187,0.00036086,6.38E-07,0.000360591,1.39E-05,1.661
-4.96E-05,-1.17E-06,0.006177201,-0.000602103,0.000121534,3.82E-06,-1.12E-05,-0.002001376,0.000333013,0.000343392,5.29E-07,0.000342962,1.72E-05,1.671
-5.24E-05,-1.68E-06,0.006643745,-0.000536124,0.000125995,5.06E-06,-1.19E-05,-0.002212504,0.00034874,0.000324017,4.12E-07,0.000323363,2.06E-05,1.681
-5.50E-05,-2.22E-06,0.007097964,-0.000465423,0.000129864,6.33E-06,-1.24E-05,-0.002426064,0.000363151,0.000302729,2.89E-07,0.000301766,2.41E-05,1.691
-5.75E-05,-2.78E-06,0.007538443,-0.000390129,0.000133032,7.64E-06,-1.29E-05,-0.002640629,0.000376035,0.000279543,1.61E-07,0.000278155,2.78E-05,1.701
-6.00E-05,-3.37E-06,0.007964078,-0.000310383,0.000135397,8.98E-06,-1.31E-05,-0.002854784,0.000387182,0.000254505,3.00E-08,0.00025253,3.16E-05,1.711
-6.23E-05,-3.98E-06,0.008406473,-0.000226224,0.000136864,1.03E-05,-1.33E-05,-0.003068408,0.000396499,0.000227697,-1.03E-07,0.000224903,3.56E-05,1.721
-6.44E-05,-4.62E-06,0.008932153,-0.000137236,0.00013757,1.17E-05,-1.32E-05,-0.003250715,0.000404273,0.000199245,-2.37E-07,0.000195276,3.96E-05,1.731
-6.19E-05,-5.27E-06,0.010861042,-3.46E-05,0.00013963,1.31E-05,-1.55E-05,-0.003488992,0.000425192,0.000169163,-3.69E-07,0.000163429,4.37E-05,1.741
-5.88E-05,-5.85E-06,0.012217359,8.43E-05,0.000147604,1.45E-05,-9.19E-06,-0.003829555,0.00032508,0.000137293,-4.96E-07,0.000128854,4.74E-05,1.751
-7.04E-05,-6.58E-06,0.013467936,0.000216182,0.000159862,1.60E-05,2.58E-06,-0.004226903,0.000153052,0.000103702,-5.32E-07,9.09E-05,4.99E-05,1.761
-5.93E-05,-7.22E-06,0.014436738,0.000359213,0.000181399,1.77E-05,6.08E-06,-0.004679987,-3.86E-05,7.04E-05,-4.77E-07,4.89E-05,5.06E-05,1.771
-4.58E-05,-7.74E-06,0.015132043,0.000510623,0.000210781,1.97E-05,3.60E-06,-0.005138766,-0.000234125,4.94E-05,-4.20E-07,2.66E-06,4.93E-05,1.781
-2.87E-05,-8.11E-06,0.015533129,0.000667472,0.000238605,2.20E-05,4.52E-06,-0.00558454,-0.000432039,6.64E-05,-3.75E-07,-4.79E-05,4.60E-05,1.791
-8.17E-06,-8.28E-06,0.015676375,0.000826999,0.000259657,2.45E-05,7.51E-06,-0.005993683,-0.000623572,0.000110327,-3.06E-07,-0.000102508,4.08E-05,1.801
1.48E-05,-8.24E-06,0.015654372,0.000987008,0.000271309,2.71E-05,1.10E-05,-0.006349857,-0.000800518,0.00016428,-2.05E-07,-0.000160787,3.37E-05,1.811
3.90E-05,-7.96E-06,0.015507258,0.001146406,0.000273597,2.98E-05,1.50E-05,-0.00664317,-0.000957308,0.000223556,-6.53E-08,-0.000222163,2.49E-05,1.821
6.35E-05,-7.44E-06,0.015183233,0.001303451,0.00026718,3.25E-05,1.93E-05,-0.006866438,-0.001089499,0.000286357,1.17E-07,-0.00028598,1.47E-05,1.831
8.79E-05,-6.67E-06,0.014707906,0.00145651,0.000252999,3.51E-05,2.36E-05,-0.007016182,-0.001194553,0.000351551,3.41E-07,-0.000351536,3.24E-06,1.841
0.000111651,-5.66E-06,0.014218812,0.001604723,0.000232119,3.75E-05,2.80E-05,-0.007095868,-0.001271599,0.000418212,6.09E-07,-0.000418112,-9.12E-06,1.851
0.000134407,-4.42E-06,0.013659426,0.001747954,0.00020681,3.97E-05,3.25E-05,-0.007109729,-0.001320828,0.000485538,9.21E-07,-0.000485033,-2.21E-05,1.861
0.000155649,-2.95E-06,0.012992607,0.001885086,0.000178506,4.16E-05,3.69E-05,-0.007062386,-0.001341801,0.000552809,1.28E-06,-0.000551667,-3.55E-05,1.871
0.000174917,-1.29E-06,0.012282475,0.00201524,0.000148076,4.32E-05,4.11E-05,-0.006959119,-0.001335086,0.000619371,1.67E-06,-0.000617433,-4.89E-05,1.881
0.000191775,5.55E-07,0.011652101,0.002139092,0.000117242,4.45E-05,4.51E-05,-0.006811228,-0.001303121,0.000684661,2.11E-06,-0.000681829,-6.22E-05,1.891
0.00020575,2.55E-06,0.01093862,0.002256263,8.74E-05,4.55E-05,4.89E-05,-0.006623507,-0.001247089,0.0007482,2.59E-06,-0.000744428,-7.50E-05,1.901
-0.099969119,-0.000494358,0.033394076,0.002488298,0.000589923,4.77E-05,0.132443517,-0.007476312,-0.005638882,0.000890306,0.000363898,-0.00080763,-8.92E-05,1.911
-0.220946029,-0.002217566,0.054482855,0.002968681,-0.001147523,3.99E-05,0.366298527,-0.011492758,-0.002671275,0.002842139,0.002699116,-0.000884703,-9.91E-05,1.921
-0.335303724,-0.005117918,0.066977575,0.003612306,0.001232535,4.99E-05,0.673234165,-0.01893398,-0.000839451,0.00775004,0.007682987,-0.001011764,-0.000105643,1.931
-0.429471642,-0.00906476,0.067743935,0.004314433,0.001961361,6.18E-05,0.972611725,-0.035565112,0.00565102,0.015846105,0.015795993,-0.001253857,-0.000116298,1.941
-0.501152813,-0.013828685,0.066418998,0.004999468,0.002154341,8.36E-05,1.280297995,-0.049754508,0.013048206,0.026964083,0.026912885,-0.001656789,-0.000116236,1.951
-0.545767903,-0.019165855,0.078516468,0.005736938,0.001150481,0.000101697,1.591127753,-0.050120529,0.023949753,0.041205138,0.041148566,-0.002156534,-9.10E-05,1.961
-0.560401738,-0.024786213,0.097764403,0.006653916,-0.000314387,0.000103506,1.90559423,-0.043348834,0.038168266,0.058580283,0.058521789,-0.002617175,-1.78E-05,1.971
-0.543568373,-0.030380515,0.101182848,0.007685674,0.000482553,0.000103575,2.221903563,-0.046494599,0.056371845,0.079122931,0.079064474,-0.00303802,0.00013442,1.981
-0.284267455,-0.034543682,0.046217009,0.008372409,-0.001352137,0.000103856,2.166213036,-0.032976963,0.094175994,0.101812303,0.101752468,-0.00346557,0.00041357,1.991
-0.022789689,-0.035781741,0.022536488,0.008684394,-0.002118659,7.81E-05,1.899026871,-0.003965326,0.096714482,0.122060187,0.122002564,-0.003648777,0.000865861,2.001
0.147544071,-0.035046179,-0.020385586,0.008666159,-0.000263054,7.35E-05,1.897267699,0.003691744,0.104196616,0.141112074,0.141057476,-0.003642069,0.001462608,2.011
0.304422677,-0.032678846,-0.04690427,0.00830159,-0.002159723,5.57E-05,1.835000515,0.021934863,0.110887677,0.159922928,0.159869179,-0.003519616,0.002190906,2.021
0.430790961,-0.028890824,-0.079863124,0.007640515,-0.000521075,4.70E-05,1.746588707,0.032462876,0.1090976,0.177915305,0.177860111,-0.003244703,0.003018354,2.031
0.515207768,-0.024066973,-0.104199946,0.006694563,-0.001413571,3.36E-05,1.666692734,0.044579662,0.102048874,0.19506368,0.195003629,-0.002860094,0.00390369,2.041
0.545922101,-0.018685352,-0.124874808,0.005522639,-0.000644448,2.62E-05,1.600923061,0.052673262,0.088667616,0.211408928,0.211341247,-0.002374292,0.004793433,2.051
0.518153846,-0.013332384,-0.136887804,0.004197745,-0.000681847,1.72E-05,1.588326693,0.057593729,0.072084196,0.227317587,0.227240458,-0.001820444,0.005634428,2.061
0.438602358,-0.008558798,-0.140807971,0.002797267,-0.000622907,1.19E-05,1.630311012,0.059624702,0.054455385,0.243321255,0.243234366,-0.00123263,0.006384116,2.071
0.315785676,-0.004832106,-0.137805075,0.00140582,-0.000706388,3.50E-06,1.730900407,0.056580532,0.0356852,0.260001898,0.259906441,-0.000641805,0.007015653,2.081
0.169978514,-0.002500606,-0.127246782,7.53E-05,-0.000905407,-1.84E-06,1.873009801,0.053520758,0.022764949,0.277886182,0.277784675,-9.47E-05,0.00750977,2.091
0.029562412,-0.001614983,-0.112832025,-0.001113801,-0.000536776,-8.62E-06,2.040184736,0.046247225,0.014544137,0.297319561,0.297215074,0.000406898,0.007871608,2.101
-0.049969126,-0.001845024,-0.101290196,-0.002174163,-0.00092924,-1.68E-05,2.139380932,0.041518759,0.013671177,0.318289161,0.318184316,0.000839854,0.008125061,2.111
-0.07678102,-0.002503324,-0.089516744,-0.00312711,-0.000875708,-2.49E-05,2.128697395,0.038033888,0.008420819,0.339620113,0.33951667,0.001232581,0.008290571,2.121
-0.099393792,-0.003407809,-0.076811858,-0.003954111,-0.000814799,-3.44E-05,2.15568161,0.032090105,0.003952218,0.360994607,0.360893995,0.001578773,0.008374967,2.131
-0.103619963,-0.004443909,-0.063425414,-0.004651176,-0.000357369,-3.96E-05,2.172067165,0.026869349,0.002129357,0.382647634,0.382550985,0.001868208,0.008394137,2.141
-0.097698219,-0.005451873,-0.049238261,-0.005209618,-0.000181892,-4.22E-05,2.182375908,0.021125628,-0.000858247,0.4044002,0.404308319,0.002103265,0.008359724,2.151
-0.087355398,-0.006381369,-0.034608707,-0.005622814,-3.53E-05,-4.32E-05,2.202507734,0.01518495,-0.00295371,0.426322281,0.426235765,0.002279148,0.008280766,2.161
-0.070540659,-0.007167482,-0.020067185,-0.005890062,4.63E-05,-4.31E-05,2.214708567,0.009408237,-0.004933379,0.448410213,0.448329449,0.002396442,0.008165615,2.171
-0.052535567,-0.007776614,-0.005806381,-0.006012856,0.000127427,-4.22E-05,2.228969097,0.003641796,-0.007015368,0.470625252,0.470550478,0.002456284,0.008020801,2.181
-0.034147017,-0.008203025,0.008526248,-0.005993073,0.000132254,-4.07E-05,2.241663694,-0.001824128,-0.009250174,0.492981374,0.49291271,0.002459735,0.007850657,2.191
-0.017464299,-0.008453731,0.021573225,-0.005835179,-0.000296451,-4.00E-05,2.265398741,-0.007268445,-0.011413843,0.515500605,0.515438139,0.002409105,0.007657349,2.201
0.003737584,-0.008510014,0.032776069,-0.005559138,0.00033157,-3.77E-05,2.260310173,-0.012000729,-0.012728958,0.538146913,0.538090468,0.002306691,0.007446814,2.211
0.015956184,-0.008401481,0.043700386,-0.005170004,0.000450445,-3.36E-05,2.273102283,-0.016453775,-0.015054202,0.560795188,0.560744524,0.002160189,0.007222245,2.221
0.027092282,-0.008183677,0.052352536,-0.004684336,0.000559089,-2.86E-05,2.282292128,-0.020521523,-0.016018454,0.583583415,0.583538234,0.001971304,0.006986941,2.231
0.036150325,-0.007860666,0.059753127,-0.004119087,0.000580291,-2.31E-05,2.289111853,-0.023488348,-0.017409332,0.606431603,0.606391609,0.001748098,0.006744249,2.241
0.042917207,-0.007462935,0.065042242,-0.003490736,0.000640646,-1.69E-05,2.296547174,-0.025929298,-0.018144632,0.629362345,0.629326999,0.001498774,0.006497179,2.251
0.048222858,-0.007003647,0.068519011,-0.002819986,0.000619539,-1.06E-05,2.301432371,-0.027495595,-0.018854734,0.652348638,0.652317524,0.001229648,0.006248394,2.261
0.051682558,-0.006502402,0.070173949,-0.002124061,0.000634846,-4.36E-06,2.306331873,-0.028335791,-0.019256933,0.675386369,0.67535907,0.000949311,0.006000144,2.271
0.053859841,-0.005973108,0.069995314,-0.001421906,0.000636822,2.06E-06,2.309794664,-0.028450262,-0.019525925,0.698464394,0.698440373,0.000664724,0.005754346,2.281
0.054734703,-0.005429509,0.068191551,-0.000730443,0.000616618,8.33E-06,2.312816143,-0.027866445,-0.019611193,0.721575618,0.721554458,0.000383023,0.005512585,2.291
0.054624699,-0.004882452,0.064851254,-6.56E-05,0.00060721,1.45E-05,2.314949751,-0.026662119,-0.019576751,0.744712174,0.744693458,0.000110806,0.005276153,2.301
0.053647894,-0.004341369,0.060176432,0.00055844,0.00058073,2.04E-05,2.316515446,-0.024892086,-0.019420778,0.767867506,0.767850876,-0.00014608,0.005046087,2.311
0.052002188,-0.0038137,0.054359358,0.001129294,0.000550838,2.61E-05,2.317426682,-0.022636533,-0.019172847,0.791035116,0.791020334,-0.00038243,0.004823212,2.321
0.049821932,-0.003305454,0.047612466,0.001636719,0.00051546,3.14E-05,2.317775488,-0.019983292,-0.018839611,0.814209223,0.814195991,-0.000593903,0.004608177,2.331
0.047238328,-0.002821212,0.040160779,0.002072641,0.000473075,3.64E-05,2.317584038,-0.017021142,-0.018436151,0.837384164,0.837372243,-0.000777037,0.004401495,2.341
0.044360634,-0.00236442,0.032204691,0.002431165,0.000406171,4.08E-05,2.3168962,-0.013859512,-0.017967841,0.860554814,0.860544026,-0.00092933,0.004203575,2.351
0.040862601,-0.00193993,0.023248795,0.002704104,0.000342453,4.44E-05,2.315821648,-0.010651019,-0.017839061,0.883716583,0.883706808,-0.001049543,0.004013179,2.361
0.037448753,-0.001549881,0.014877601,0.002890473,0.000389922,4.82E-05,2.314200401,-0.007031192,-0.01742149,0.90686506,0.906856239,-0.001135691,0.003829485,2.371
0.034020457,-0.001194008,0.006793634,0.002995049,0.00026969,5.15E-05,2.312297583,-0.003493839,-0.016924843,0.929996014,0.929988086,-0.00118606,0.003653666,2.381
0.030671481,-0.000871964,-0.001038621,0.003019945,0.000130055,5.34E-05,2.310002089,-0.000282981,-0.016339397,0.953106105,0.953098953,-0.001202811,0.003486279,2.391
0.027463757,-0.000582627,-0.008265311,0.002969604,4.37E-05,5.42E-05,2.307374716,0.00271428,-0.015649542,0.976191819,0.976185381,-0.001188635,0.003327938,2.401
0.024445513,-0.00032428,-0.014726519,0.002851168,-2.63E-05,5.43E-05,2.30442977,0.005434897,-0.014854747,0.999249816,0.999244094,-0.001145958,0.003179385,2.411
0.021947719,-9.31E-05,-0.019975355,0.002675593,-0.000248063,5.31E-05,2.301190615,0.007555966,-0.014216774,1.022277117,1.022271991,-0.001078864,0.003039907,2.421
0.019537119,0.000113613,-0.024777262,0.002448625,-0.000530878,4.87E-05,2.297688007,0.009055763,-0.013431409,1.045271039,1.045266509,-0.00099492,0.002909297,2.431
0.017278429,0.000297057,-0.02826551,0.002181178,-0.000630338,4.28E-05,2.293958187,0.010558181,-0.012501634,1.06822896,1.068224907,-0.000895745,0.002789205,2.441
0.015193472,0.00045891,-0.030890081,0.001883814,-0.000760877,3.58E-05,2.290013313,0.011580522,-0.011477293,1.091148734,1.091145158,-0.000783954,0.002680572,2.451
0.013268848,0.000600848,-0.03260598,0.001565021,-0.000894248,2.74E-05,2.285878181,0.012178139,-0.0103702,1.114028215,1.114024997,-0.000664419,0.002584127,2.461
0.011380469,0.000724065,-0.033132929,0.001235179,-0.000965208,1.80E-05,2.281598568,0.012505903,-0.009313807,1.136865616,1.136862755,-0.000540497,0.002500411,2.471
0.009577612,0.000828549,-0.032705728,0.000906068,-0.001021587,7.94E-06,2.277163982,0.012470386,-0.008167071,1.159659743,1.159657121,-0.000415152,0.002428891,2.481
0.008236462,0.000917404,-0.032306295,0.000581547,-0.001062034,-2.48E-06,2.272614479,0.012041355,-0.00720305,1.182409048,1.182406664,-0.000292122,0.002368998,2.491
0.006990072,0.000993672,-0.030989781,0.000265166,-0.001175778,-1.38E-05,2.267978668,0.011444305,-0.006269053,1.205112696,1.205110431,-0.00017451,0.002318987,2.501
0.005835512,0.001057964,-0.028597631,-3.19E-05,-0.001024119,-2.51E-05,2.263252974,0.010804572,-0.005260251,1.227769494,1.227767467,-6.31E-05,0.00227971,2.511
0.004799787,0.001111384,-0.025729949,-0.000301881,-0.000796322,-3.40E-05,2.25845933,0.009947442,-0.004233595,1.250378847,1.250376821,4.15E-05,0.00225139,2.521
0.003867167,0.001155038,-0.022632061,-0.00054204,-0.000750468,-4.16E-05,2.253622055,0.008720534,-0.003195973,1.272940159,1.272938132,0.000135231,0.002234054,2.531
0.003018547,0.00118985,-0.019110672,-0.000748947,-0.000729719,-4.91E-05,2.248753786,0.007364942,-0.002144028,1.295452952,1.295450926,0.000215767,0.002227763,2.541
0.002241219,0.001216582,-0.0152924,-0.000918815,-0.000657997,-5.61E-05,2.243864775,0.005924521,-0.001079652,1.317916989,1.317915082,0.000282457,0.002232587,2.551
0.001528742,0.001235904,-0.011351258,-0.001049732,-0.000571692,-6.22E-05,2.238964796,0.004395084,-1.16E-05,1.34033215,1.340330243,0.000334371,0.002248532,2.561
0.000878071,0.001248445,-0.007363881,-0.00114093,-0.000490275,-6.75E-05,2.234063148,0.00283749,0.001047733,1.362698317,1.36269629,0.000370848,0.002275494,2.571
0.000287245,0.00125481,-0.003411651,-0.001192357,-0.000397823,-7.19E-05,2.229167461,0.001308591,0.002085713,1.385015488,1.38501358,0.000391945,0.002313243,2.581
-0.000245647,0.001255588,0.000176439,-0.001205744,-0.000448508,-7.59E-05,2.224285126,-0.000304732,0.003090303,1.407283902,1.407281876,0.000397682,0.00236143,2.591
-0.000722752,0.001251343,0.003480168,-0.001185685,-0.000571193,-8.14E-05,2.219422817,-0.001961446,0.004050655,1.42950356,1.429501414,0.000386351,0.002419595,2.601
-0.001146268,0.00124262,0.00699852,-0.001131117,-0.000326102,-8.60E-05,2.214586258,-0.003065206,0.004957162,1.4516747,1.451672554,0.000361766,0.00248718,2.611
-0.001518481,0.001229943,0.01014744,-0.001042905,5.23E-06,-8.74E-05,2.209781647,-0.003966839,0.005801514,1.473797679,1.473795414,0.000327882,0.002563544,2.621
-0.001841909,0.001213808,0.012749014,-0.000926335,0.000271937,-8.58E-05,2.205013752,-0.004788924,0.006576748,1.495872855,1.495870471,0.000285325,0.002647973,2.631
-0.002119118,0.00119469,0.014938253,-0.000786038,0.000540626,-8.16E-05,2.200287342,-0.005371941,0.007277278,1.517900586,1.517898083,0.000235707,0.002739695,2.641
-0.002352609,0.001173035,0.016671661,-0.000626259,0.000828305,-7.46E-05,2.19560647,-0.005717575,0.007898938,1.539881229,1.539878607,0.000181567,0.002837894,2.651
-0.002538678,0.001149293,0.017829465,-0.000452214,0.001082504,-6.49E-05,2.19095993,-0.005903578,0.008439415,1.561815262,1.56181252,0.000124821,0.002941724,2.661
-0.002673878,0.001123971,0.018399308,-0.000269869,0.00127691,-5.29E-05,2.186336994,-0.005936104,0.008895914,1.583703041,1.583700061,6.69E-05,0.003050323,2.671
-0.002765758,0.001097539,0.018434314,-8.48E-05,0.001418989,-3.92E-05,2.18174839,-0.005796378,0.009267684,1.605544806,1.605541587,9.31E-06,0.003162821,2.681
-0.002823406,0.001070376,0.017831959,9.73E-05,0.001420578,-2.48E-05,2.177206993,-0.005593749,0.009555653,1.627340794,1.627337456,-4.66E-05,0.003278357,2.691
-0.002853795,0.001042781,0.016750313,0.000270263,0.001350705,-1.10E-05,2.172722816,-0.005307726,0.009761807,1.649091721,1.649088264,-0.000100561,0.003396087,2.701
-0.002862116,0.001014998,0.015370412,0.000431033,0.001312805,2.47E-06,2.168302298,-0.004793005,0.009889237,1.670798182,1.670794368,-0.000150423,0.003515194,2.711
-0.002851959,0.000987224,0.013436936,0.000574813,0.001096599,1.45E-05,2.163948774,-0.004364267,0.009942008,1.692460656,1.692456722,-0.000195787,0.003634898,2.721
-0.002825934,0.000959629,0.011351686,0.000698158,0.000912208,2.45E-05,2.159664392,-0.003789126,0.009924833,1.714079976,1.714075804,-0.000236472,0.003754467,2.731
-0.002786109,0.00093236,0.009074731,0.000799742,0.000702288,3.25E-05,2.155451298,-0.003143817,0.009843104,1.735656738,1.735652447,-0.000270949,0.00387322,2.741
-0.002734151,0.000905544,0.006688039,0.000877691,0.000486969,3.83E-05,2.151309967,-0.002482111,0.009702743,1.757191777,1.757187247,-0.000299135,0.003990535,2.751
-0.002671507,0.000879296,0.004283196,0.000931724,0.000280778,4.21E-05,2.147241354,-0.001774936,0.009510061,1.778685689,1.778680921,-0.000320415,0.004105852,2.761
-0.002599442,0.000853713,0.001838692,0.000961424,2.26E-05,4.36E-05,2.14324522,-0.001131466,0.009271679,1.800139308,1.800134301,-0.00033501,0.004218679,2.771
-0.002519453,0.000828884,-0.000556955,0.000966842,-0.000274449,4.22E-05,2.139322758,-0.000557958,0.008994122,1.82155323,1.821548104,-0.000343608,0.004328592,2.781
-0.002432549,0.00080488,-0.002825646,0.000948935,-0.000593848,3.77E-05,2.135474205,-5.68E-05,0.008684586,1.84292841,1.842923045,-0.000346838,0.004435239,2.791
-0.002339712,0.000781766,-0.004920802,0.000909236,-0.000929767,2.99E-05,2.131698847,0.000349279,0.008349608,1.864265323,1.86425972,-0.000345473,0.004538334,2.801
-0.002242251,0.000759594,-0.006798359,0.000849715,-0.001277361,1.86E-05,2.127996445,0.000644324,0.007995849,1.885564804,1.885559082,-0.000340492,0.004637663,2.811
-0.002141374,0.000738404,-0.008384222,0.000772939,-0.001606935,3.95E-06,2.124366999,0.000845804,0.007629745,1.906827688,1.906821847,-0.000332866,0.004733078,2.821
-0.002038242,0.000718222,-0.009638577,0.000682101,-0.001901357,-1.38E-05,2.12081027,0.000962577,0.00725744,1.928054571,1.928048491,-0.000323365,0.004824495,2.831
-0.001933981,0.000699066,-0.010555053,0.000580554,-0.00215994,-3.44E-05,2.117325544,0.000984196,0.006884726,1.949246287,1.949239969,-0.00031283,0.004911893,2.841
-0.001829691,0.00068094,-0.011126237,0.000471716,-0.002379536,-5.73E-05,2.113912582,0.000911885,0.006516994,1.970403314,1.970396996,-0.000302159,0.004995306,2.851
-0.001726447,0.000663839,-0.011266978,0.000359374,-0.002495483,-8.20E-05,2.110570669,0.000810074,0.00615919,1.991526723,1.991520166,-0.000291989,0.00507482,2.861
-0.001448986,0.000649201,-0.010962689,0.000248298,-0.002477525,-0.000106901,2.105333328,0.000705853,0.00562542,2.012606621,2.012599945,-0.00028193,0.005150578,2.871
-0.00189344,0.000630515,-0.010473446,0.000141628,-0.002547483,-0.000132178,2.103313446,0.00042861,0.005524939,2.033658981,2.033652306,-0.000273299,0.005222687,2.881
-0.001853216,0.000611605,-0.00966355,4.12E-05,-0.002455152,-0.000157328,2.100567579,0.000189507,0.005238064,2.054682732,2.054676056,-0.00026713,0.005291453,2.891
-0.001678067,0.000594474,-0.0086683,-4.99E-05,-0.002358443,-0.000181355,2.097583532,-9.12E-05,0.004962212,2.075675488,2.075668335,-0.000262804,0.005357109,2.901
-0.001477295,0.000579435,-0.00755076,-0.000130557,-0.002284314,-0.000204679,2.094511747,-0.000475454,0.004711146,2.096636534,2.09662962,-0.000261482,0.005419932,2.911
-0.001299083,0.000566276,-0.006133321,-0.0001983,-0.002071534,-0.000226481,2.091520548,-0.000750554,0.004486684,2.117567301,2.117560387,-0.000262927,0.005480225,2.921
-0.001149646,0.000554698,-0.004716125,-0.000251649,-0.001883868,-0.000246165,2.088620424,-0.001093096,0.004295134,2.138468742,2.13846159,-0.000266812,0.005538292,2.931
-0.001025905,0.000544437,-0.003321176,-0.000291067,-0.001727568,-0.00026422,2.08580637,-0.001507344,0.004133494,2.159341574,2.159334421,-0.000274202,0.005594445,2.941
-0.000922256,0.000535273,-0.00182616,-0.000315946,-0.001509826,-0.00028038,2.083067894,-0.001841103,0.004001164,2.180186749,2.180179358,-0.000284936,0.005648993,2.951
-0.000830291,0.000527067,-0.000379871,-0.00032603,-0.00128598,-0.000294276,2.080383539,-0.002149949,0.00389764,2.201004744,2.200997353,-0.000298412,0.005702245,2.961
-0.00074936,0.000519711,0.000966852,-0.000322192,-0.00106629,-0.000305957,2.077750921,-0.002444076,0.003822013,2.221796036,2.221788645,-0.00031458,0.005754503,2.971
-0.00068161,0.000513084,0.002201319,-0.000305474,-0.000848721,-0.000315436,2.075172424,-0.002694688,0.003773582,2.24256134,2.242553711,-0.00033317,0.005806061,2.981
-0.000628737,0.000507043,0.0032883,-0.000277207,-0.000645883,-0.000322815,2.072651148,-0.002903785,0.003751463,2.263301134,2.263293505,-0.000353807,0.0058572,2.991
-0.000591389,0.000501433,0.004220953,-0.000238905,-0.000449337,-0.000328195,2.070188522,-0.003054682,0.003754473,2.284015894,2.284008265,-0.000376027,0.005908189,3.001
-0.00056928,0.000496101,0.004970884,-0.000192253,-0.000268009,-0.000331675,2.067784548,-0.003151455,0.003781176,2.304706335,2.304698706,-0.000399288,0.005959277,3.011
-0.000561462,0.000490899,0.005514632,-0.000139227,-0.000114143,-0.000333482,2.065438986,-0.003204914,0.003829917,2.325373173,2.325365305,-0.000423159,0.006010695,3.021
-0.000566562,0.000485692,0.005850996,-8.19E-05,9.32E-06,-0.000333914,2.063150644,-0.003214498,0.00389885,2.346016645,2.346008778,-0.000447251,0.006062652,3.031
-0.000582955,0.00048036,0.00598497,-2.23E-05,0.000101544,-0.000333278,2.060918331,-0.003180436,0.003985968,2.366637707,2.366629601,-0.000471152,0.006115336,3.041
-0.000608883,0.000474799,0.005922609,3.75E-05,0.000161012,-0.000331898,2.058741093,-0.003108343,0.004089134,2.387236357,2.387228489,-0.000494473,0.006168908,3.051
-0.000642535,0.000468924,0.005675873,9.56E-05,0.000187406,-0.000330104,2.056617498,-0.003004496,0.004206107,2.407813787,2.407805681,-0.000516884,0.00622351,3.061
-0.000682112,0.000462668,0.005263302,0.000150371,0.00018194,-0.000328223,2.054546356,-0.002874351,0.004334581,2.428370237,2.428361893,-0.000538103,0.006279253,3.071
-0.000725868,0.000455983,0.004707611,0.000200184,0.000146738,-0.000326563,2.052526474,-0.002723695,0.004472213,2.448905945,2.448897839,-0.000557896,0.006336228,3.081
-0.000772147,0.000448835,0.004034156,0.000243762,8.46E-05,-0.000325407,2.050556421,-0.002558936,0.004616656,2.469421864,2.469413519,-0.000576085,0.006394499,3.091
-0.000819409,0.000441208,0.003270245,0.000280076,-8.72E-07,-0.000325006,2.048635244,-0.002386652,0.004765592,2.48991847,2.489909887,-0.000592547,0.006454107,3.101
-0.000866252,0.000433101,0.002443318,0.000308376,-0.000106485,-0.000325574,2.046761274,-0.002213657,0.004916755,2.510396004,2.510387421,-0.000607221,0.00651507,3.111
-0.000911416,0.000424525,0.001537336,0.00032801,-0.000259831,-0.000327416,2.044933796,-0.002076587,0.005067968,2.53085494,2.530846357,-0.000620224,0.006577382,3.121
-0.001079783,0.000415046,0.000572545,0.000338124,-0.000486989,-0.000331239,2.043449402,-0.002026519,0.005201591,2.551296473,2.551287651,-0.000632249,0.006641014,3.131
-0.001436334,0.000402481,-0.000274132,0.000339188,-0.000691261,-0.00033729,2.042435408,-0.001970655,0.005359847,2.571725845,2.571717024,-0.000643643,0.006705904,3.141
-0.001759665,0.000386439,-0.001054618,0.00033224,-0.000878082,-0.000345233,2.041475296,-0.001917819,0.005524518,2.592145681,2.59213686,-0.00065413,0.006771985,3.151
-0.001987157,0.000367693,-0.001805024,0.000317592,-0.001075846,-0.000355126,2.040454149,-0.001921084,0.005688732,2.612555742,2.612546682,-0.000664097,0.006839176,3.161
-0.002115256,0.000347236,-0.002448961,0.000295958,-0.001251404,-0.000366904,2.039366007,-0.001935626,0.005848757,2.632955074,2.632946014,-0.000673837,0.006907393,3.171
-0.002156185,0.000325999,-0.002955944,0.000268631,-0.001392999,-0.00038025,2.038227558,-0.001945532,0.006000874,2.653343439,2.653334379,-0.00068328,0.006976546,3.181
-0.002124638,0.00030477,-0.003338819,0.000236918,-0.00150848,-0.000394864,2.037054539,-0.00196967,0.006141584,2.67372036,2.673711061,-0.000692427,0.007046537,3.191
-0.002034501,0.000284194,-0.003605889,0.000202007,-0.001603051,-0.000410519,2.035857677,-0.002018906,0.006267893,2.69408536,2.694076061,-0.000701452,0.007117263,3.201
-0.001898238,0.000264787,-0.003752002,0.000165077,-0.001674763,-0.000426998,2.03464365,-0.002089676,0.00637728,2.714438438,2.714428902,-0.000710571,0.007188602,3.211
-0.011493443,0.000211083,-0.001911994,0.000134746,-0.001722382,-0.000444063,2.057109118,-0.002287551,0.005444063,2.734828711,2.734818935,-0.000720131,0.007260047,3.221
-0.026272751,6.47E-06,0.001059498,0.000134068,-0.001681864,-0.000461192,2.088603497,-0.002963129,0.006532036,2.755544186,2.75553441,-0.000732705,0.007330345,3.231
-0.037324321,-0.000327627,0.002427935,0.000155195,-0.001613123,-0.000477635,2.117330313,-0.004015504,0.007336955,2.776572704,2.776562691,-0.00075305,0.007396061,3.241
-0.038687546,-0.000727525,0.002817553,0.000185191,-0.001498451,-0.000493345,2.129418135,-0.004887864,0.008656061,2.797840118,2.797830105,-0.000783018,0.007451281,3.251
-0.027747618,-0.001055266,0.001702786,0.000207083,-0.001254925,-0.000506985,2.117574453,-0.004911763,0.008863406,2.819083929,2.819073915,-0.000817593,0.007497309,3.261
-0.012964391,-0.001249685,0.000605654,0.000217421,-0.001052661,-0.000518402,2.097701073,-0.004253837,0.00915681,2.840177298,2.840167284,-0.000849145,0.007538164,3.271
0.002942216,-0.001287487,-0.000507318,0.000216584,-0.000877485,-0.00052795,2.074117899,-0.003287969,0.009273592,2.861053705,2.861043692,-0.000872322,0.007578111,3.281
0.017680878,-0.001170743,-0.001772588,0.000203762,-0.000770661,-0.00053605,2.050093889,-0.002403077,0.009173495,2.881688356,2.881678343,-0.000885756,0.007621673,3.291
0.029581554,-0.000921455,-0.003148546,0.000177605,-0.000808358,-0.000543828,2.028202534,-0.00180353,0.008922265,2.902089119,2.902078867,-0.000891416,0.00767296,3.301
0.037691332,-0.000574255,-0.004399967,0.00013822,-0.000991065,-0.000552862,2.010160685,-0.001503702,0.008576556,2.922286272,2.92227602,-0.000892422,0.007735025,3.311
0.041734964,-0.000169238,-0.005220141,8.87E-05,-0.001198713,-0.000563947,1.996738791,-0.001367243,0.008163402,2.942322731,2.942312241,-0.000890957,0.007809499,3.321
0.037806977,0.000245786,-0.004809772,3.50E-05,-0.001388661,-0.000577022,1.994535923,-0.00140919,0.006091076,2.96224761,2.962236881,-0.000888288,0.007895861,3.331
0.030207973,0.000553256,-0.00393259,-2.90E-06,-0.001529737,-0.000591821,2.000224352,-0.001854337,0.006602368,2.982304096,2.982293129,-0.000887101,0.007985872,3.341
0.027351214,0.000841812,-0.004478202,-4.58E-05,-0.001680838,-0.000607959,1.998195291,-0.00238587,0.00509045,3.002291918,3.002280951,-0.00089037,0.008074151,3.351
0.015268352,0.001077335,-0.002687094,-8.61E-05,-0.001787331,-0.000625476,2.012220621,-0.002813403,0.00183839,3.022251844,3.022240639,-0.00089798,0.008159278,3.361
0.012680948,0.001208226,-0.002566949,-0.000111499,-0.001737845,-0.000643204,2.004184008,-0.003144696,0.003014293,3.042366028,3.042354822,-0.000908469,0.00823955,3.371
0.011079148,0.001325923,-0.002678959,-0.000138259,-0.0016656,-0.000660172,1.998780489,-0.003419403,0.002437153,3.062390804,3.06237936,-0.000921473,0.008314445,3.381
-0.000484616,0.001388462,-0.000644921,-0.000155856,-0.001604242,-0.00067651,2.018399715,-0.003615517,0.000771329,3.082398176,3.082386494,-0.000936134,0.008383249,3.391
0.001391539,0.001397284,-0.000908018,-0.000163998,-0.001460554,-0.000691792,1.999522924,-0.003823295,0.000970877,3.102474213,3.10246253,-0.000952122,0.008446572,3.401
-0.007807827,0.001373199,0.000759371,-0.000165958,-0.001333545,-0.000705657,2.016369581,-0.004003979,0.000212189,3.12250042,3.122488499,-0.000969342,0.008504787,3.411
-0.003874067,0.001319751,0.000144276,-0.000162205,-0.001197131,-0.000718234,1.99650085,-0.004160447,0.00073628,3.142559528,3.142547846,-0.000987848,0.008558997,3.421
-0.01510013,0.001188013,0.002343131,-0.000142337,-0.001067182,-0.000729535,2.018615961,-0.004409991,0.002236931,3.162692547,3.162680626,-0.001007643,0.008609354,3.431
-0.008293165,0.001081737,0.001109478,-0.000126615,-0.000917276,-0.000739336,1.998474121,-0.004518993,0.001206227,3.182756186,3.182744265,-0.001028894,0.008657887,3.441
-0.011036755,0.000952814,0.001941174,-0.000105298,-0.000818424,-0.00074803,2.000683784,-0.004543041,0.002633766,3.20283246,3.202820539,-0.001050606,0.008705026,3.451
-0.017966721,0.000836242,0.00353073,-8.26E-05,-0.00073593,-0.000755699,2.017343998,-0.004485943,0.00024219,3.222820282,3.222808123,-0.001071406,0.008752233,3.461
-0.008889695,0.000702784,0.001945611,-5.59E-05,-0.000693562,-0.000762828,1.991878271,-0.004529823,0.002777435,3.242903709,3.24289155,-0.001091929,0.008800307,3.471
-0.015459701,0.000547776,0.003116309,-2.41E-05,-0.000654885,-0.000769595,2.011307716,-0.004649533,0.004930766,3.262980938,3.262968779,-0.00111289,0.008849446,3.481
-0.013364296,0.000440402,0.002940863,3.35E-08,-0.000571862,-0.00077563,2.004567862,-0.004602873,0.002246865,3.28295517,3.282942772,-0.001133685,0.008901239,3.491
-0.007512747,0.000310196,0.001975454,2.84E-05,-0.000511085,-0.000781086,1.989897728,-0.004507057,0.005526372,3.30303669,3.303024292,-0.001153639,0.008955462,3.501
-0.017736068,0.000162792,0.003749573,6.20E-05,-0.000483881,-0.000786062,2.022764921,-0.004521797,0.006148951,3.323101521,3.323088884,-0.001172605,0.009012092,3.511
-0.00715336,6.84E-05,0.001973201,8.53E-05,-0.000440138,-0.000790574,1.993829012,-0.004459083,0.005250623,3.343128681,3.343116045,-0.001191115,0.009072234,3.521
-0.0054278,-3.29E-05,0.001564576,0.000109207,-0.000456938,-0.000795126,1.99335587,-0.004371884,0.008326369,3.363194227,3.363181591,-0.001208825,0.009134251,3.531
-0.012880744,-0.000102481,0.002908505,0.000128355,-0.000472672,-0.000799769,2.017250776,-0.004231985,0.006071964,3.383149862,3.383136988,-0.001224736,0.009198571,3.541
-0.002105506,-0.000158126,0.000942727,0.000143237,-0.000458241,-0.00080439,1.987280369,-0.004117746,0.006899096,3.4031744,3.403161526,-0.001239073,0.009265141,3.551
-0.005828498,-0.000237747,0.001009723,0.000159721,-0.000514979,-0.000809296,2.005083084,-0.004113879,0.009744516,3.423242092,3.423228979,-0.001252559,0.009332966,3.561
-0.005750556,-0.000254533,0.000827878,0.000162239,-0.000589008,-0.000814793,2.007949352,-0.004037026,0.00652636,3.443171978,3.443158865,-0.00126532,0.009402733,3.571
0.004530093,-0.000281885,-0.001166416,0.000163215,-0.000621187,-0.000820919,1.981728077,-0.003878871,0.009455531,3.463224173,3.463210821,-0.001276838,0.009473882,3.581
-0.003440492,-0.000294841,2.88E-05,0.000161815,-0.000680544,-0.000827472,2.010565996,-0.003777687,0.009270801,3.483187675,3.483174324,-0.001286521,0.009546774,3.591
0.003783241,-0.000250777,-0.001174364,0.000148646,-0.000699595,-0.000834337,1.988781691,-0.003619823,0.006905647,3.503084183,3.503070593,-0.001294449,0.009621645,3.601
0.001201301,-0.000266258,-0.000961574,0.000144919,-0.000755519,-0.000841685,1.998656273,-0.00362355,0.010441951,3.523131847,3.523118258,-0.001301158,0.009697587,3.611
0.001357138,-0.000212209,-0.001211266,0.000127055,-0.00083293,-0.000849553,2.000664711,-0.003651033,0.007131069,3.543000221,3.542986631,-0.00130756,0.009775104,3.621
0.006182828,-0.000209478,-0.002226053,0.0001158,-0.000899876,-0.000858334,1.986409426,-0.003743679,0.010303508,3.563050985,3.563036919,-0.001314317,0.009852833,3.631
1.26E-06,-0.000154127,-0.00121172,9.46E-05,-0.000966753,-0.00086765,2.005849123,-0.003765031,0.007607026,3.582916737,3.58290267,-0.001320994,0.009931851,3.641
0.007190474,-0.000123677,-0.002315334,7.70E-05,-0.00097975,-0.000877459,1.980616689,-0.003805994,0.008389805,3.602910042,3.602895975,-0.001327523,0.010010609,3.651
-0.001374636,-0.000122679,-0.00104157,6.54E-05,-0.001011708,-0.000887512,2.010036469,-0.003939319,0.008984848,3.622908115,3.62289381,-0.001334253,0.010088583,3.661
0.007124183,-4.98E-05,-0.002459164,3.99E-05,-0.001019957,-0.000897642,1.984375715,-0.003972259,0.006208988,3.642785311,3.642771006,-0.001341424,0.010166114,3.671
0.005303578,-2.72E-05,-0.002143883,2.35E-05,-0.001035764,-0.000908032,1.991397738,-0.003993135,0.009364064,3.662774563,3.662760019,-0.001348541,0.010242736,3.681
0.000445005,3.16E-05,-0.001014631,3.64E-06,-0.001024943,-0.00091823,2.002374172,-0.004026546,0.00608127,3.682619572,3.68260479,-0.001355099,0.010317845,3.691
0.008398527,7.01E-05,-0.002135795,-1.22E-05,-0.000982368,-0.000928279,1.973724961,-0.004110218,0.007010169,3.702573061,3.702558279,-0.001361721,0.010390894,3.701
-0.004285909,7.61E-05,0.000164038,-1.97E-05,-0.00097444,-0.000938133,2.008838654,-0.004301963,0.006324401,3.72249794,3.72248292,-0.001368909,0.010461217,3.711
0.003928859,0.000109437,-0.001187628,-3.21E-05,-0.000927589,-0.000947645,1.983579159,-0.004422497,0.004564002,3.74241066,3.742395639,-0.00137721,0.010528757,3.721
0.002903446,0.000104205,-0.001120823,-3.71E-05,-0.000911453,-0.000956932,1.990990996,-0.004547326,0.007601306,3.762394667,3.762379408,-0.001386588,0.010592983,3.731
-0.000512963,0.000149041,-0.000207351,-4.82E-05,-0.000866993,-0.000965709,1.997522593,-0.004567914,0.004139493,3.782206774,3.782191515,-0.001396033,0.010654944,3.741
0.00702029,0.000148692,-0.001310639,-4.98E-05,-0.000784172,-0.000973967,1.974522114,-0.004610141,0.006987093,3.802185297,3.802170038,-0.001405297,0.010713935,3.751
-0.002878229,0.000170023,0.000644079,-5.24E-05,-0.000738154,-0.000981479,1.99983561,-0.004664761,0.004378545,3.822006941,3.821991444,-0.001414275,0.010770418,3.761
0.005311584,0.000151797,-0.000720248,-4.69E-05,-0.000662534,-0.000988525,1.976147056,-0.004775607,0.006392376,3.841990232,3.841974735,-0.001423754,0.010823941,3.771
-0.003643461,0.000160905,0.001027464,-4.48E-05,-0.000624475,-0.000994883,1.998686314,-0.004857183,0.003944643,3.861820459,3.861804724,-0.001433603,0.010875281,3.781
-0.001030047,0.00010599,0.000652199,-2.98E-05,-0.000561187,-0.00100084,1.991543531,-0.004987424,0.006057825,3.881846189,3.881830454,-0.001444132,0.010923648,3.791
-0.002152526,0.000122358,0.00092586,-2.73E-05,-0.000510768,-0.001006027,1.994255662,-0.004995472,0.003197778,3.901669264,3.901653528,-0.001454943,0.01097057,3.801
-0.004898034,6.45E-05,0.001603107,-9.67E-06,-0.000467036,-0.001010919,2.000921249,-0.005073483,0.005038204,3.921678305,3.921662569,-0.001465815,0.011015199,3.811
0.001391672,9.38E-05,0.000532878,-7.54E-06,-0.000402062,-0.001015106,1.984428287,-0.00497863,0.002572486,3.941494703,3.941478968,-0.001476253,0.011059228,3.821
-0.006184746,5.95E-05,0.002126567,7.68E-06,-0.000403225,-0.001019105,2.001173496,-0.005009229,0.003876913,3.961433649,3.961417675,-0.001485938,0.011102151,3.831
0.004545501,2.30E-05,-0.000242516,2.22E-05,-0.000414976,-0.001023192,1.978217006,-0.005125332,0.006100628,3.981429815,3.98141408,-0.00149615,0.01114365,3.841
-0.001349065,4.60E-05,0.000917395,2.55E-05,-0.00044067,-0.001027458,1.99295485,-0.005137328,0.003522585,4.00122118,4.001204967,-0.001506747,0.011185726,3.851
-0.00682444,-1.51E-06,0.002177954,4.25E-05,-0.000380897,-0.001031592,2.001464367,-0.005116023,0.003983397,4.021193504,4.021177769,-0.001516504,0.011227509,3.861
0.005211516,-4.06E-05,-0.000157495,5.79E-05,-0.000305089,-0.001034971,1.977136612,-0.005118649,0.00669172,4.041213036,4.041196823,-0.001525946,0.011268181,3.871
0.000503772,-3.51E-06,0.000827309,6.07E-05,-0.000315901,-0.001038013,1.990561128,-0.005070015,0.003911924,4.060986042,4.060970306,-0.001535053,0.011310514,3.881
-0.00373095,-2.48E-05,0.002020434,7.63E-05,-0.000283789,-0.001041027,1.995863438,-0.005048221,0.004277657,4.080919743,4.08090353,-0.001543251,0.011353619,3.891
